$GPRMC,025319.60,A,4217.6380189,N,07115.8810167,W,0.70,37.23,090216,14.7,W,D,C*57
$GPRMC,025319.70,A,4217.6380436,N,07115.8810129,W,1.22,41.61,090216,14.7,W,D,C*5C
$GPRMC,025319.80,A,4217.6380672,N,07115.8810046,W,0.83,50.47,090216,14.7,W,D,C*57
$GPRMC,025319.90,A,4217.6380856,N,07115.8810011,W,0.78,34.13,090216,14.7,W,D,C*5B
$GPRMC,025320.00,A,4217.6381173,N,07115.8810045,W,1.32,13.22,090216,14.7,W,D,C*5E
$GPRMC,025320.10,A,4217.6381430,N,07115.8810022,W,0.86,52.55,090216,14.7,W,D,C*57
$GPRMC,025320.20,A,4217.6381646,N,07115.8809972,W,0.74,48.06,090216,14.7,W,D,C*53
$GPRMC,025320.30,A,4217.6381898,N,07115.8809971,W,1.02,37.95,090216,14.7,W,D,C*5E
$GPRMC,025320.40,A,4217.6382131,N,07115.8809989,W,0.67,29.70,090216,14.7,W,D,C*51
$GPRMC,025320.50,A,4217.6382403,N,07115.8810033,W,1.01,17.42,090216,14.7,W,D,C*59
$GPRMC,025320.60,A,4217.6382680,N,07115.8810076,W,0.80,22.41,090216,14.7,W,D,C*5F
$GPRMC,025320.70,A,4217.6382877,N,07115.8810063,W,0.93,38.92,090216,14.7,W,D,C*5B
$GPRMC,025320.80,A,4217.6383094,N,07115.8810037,W,0.73,21.51,090216,14.7,W,D,C*58
$GPRMC,025320.90,A,4217.6383344,N,07115.8810028,W,1.11,31.31,090216,14.7,W,D,C*5B
$GPRMC,025321.00,A,4217.6383610,N,07115.8809960,W,0.76,52.85,090216,14.7,W,D,S*40
$GPRMC,025321.10,A,4217.6383823,N,07115.8809970,W,0.69,37.18,090216,14.7,W,D,S*47
$GPRMC,025321.20,A,4217.6384080,N,07115.8810011,W,0.90,27.04,090216,14.7,W,D,S*4E
$GPRMC,025321.30,A,4217.6384474,N,07115.8810032,W,1.00,32.22,090216,14.7,W,D,S*49
$GPRMC,025321.40,A,4217.6384998,N,07115.8810221,W,1.13,3.23,090216,14.7,W,D,S*70
$GPRMC,025321.50,A,4217.6385674,N,07115.8810565,W,0.82,49.10,090216,14.7,W,D,S*4D
$GPRMC,025321.60,A,4217.6386282,N,07115.8810753,W,0.81,29.17,090216,14.7,W,D,S*45
$GPRMC,025321.70,A,4217.6386923,N,07115.8811012,W,0.92,37.89,090216,14.7,W,D,S*4D
$GPRMC,025321.80,A,4217.6387426,N,07115.8811155,W,1.02,32.58,090216,14.7,W,D,S*48
$GPRMC,025321.90,A,4217.6387925,N,07115.8811232,W,0.89,28.64,090216,14.7,W,D,S*43
$GPRMC,025322.00,A,4217.6388464,N,07115.8811382,W,0.76,52.87,090216,14.7,W,D,S*44
$GPRMC,025322.10,A,4217.6389033,N,07115.8811564,W,0.96,29.40,090216,14.7,W,D,S*45
$GPRMC,025322.20,A,4217.6389597,N,07115.8811736,W,0.89,20.26,090216,14.7,W,D,S*4F
$GPRMC,025322.30,A,4217.6390151,N,07115.8811918,W,0.75,36.77,090216,14.7,W,D,S*4A
$GPRMC,025322.40,A,4217.6390656,N,07115.8812063,W,0.95,33.18,090216,14.7,W,D,S*49
$GPRMC,025322.50,A,4217.6391117,N,07115.8812172,W,0.50,46.53,090216,14.7,W,D,S*4E
$GPRMC,025322.60,A,4217.6391500,N,07115.8812309,W,0.55,54.97,090216,14.7,W,D,S*4F
$GPRMC,025322.70,A,4217.6391903,N,07115.8812448,W,0.86,39.16,090216,14.7,W,D,S*4F
$GPRMC,025322.80,A,4217.6392333,N,07115.8812542,W,0.69,49.85,090216,14.7,W,D,S*4D
$GPRMC,025322.90,A,4217.6392784,N,07115.8812684,W,0.73,27.26,090216,14.7,W,D,S*47
$GPRMC,025323.00,A,4217.6393261,N,07115.8812848,W,0.93,15.86,090216,14.7,W,D,S*4B
$GPRMC,025323.10,A,4217.6393766,N,07115.8812959,W,0.90,41.32,090216,14.7,W,D,S*44
$GPRMC,025323.20,A,4217.6394198,N,07115.8813050,W,0.80,29.75,090216,14.7,W,D,S*4A
$GPRMC,025323.30,A,4217.6394631,N,07115.8813160,W,0.76,40.68,090216,14.7,W,D,S*47
$GPRMC,025323.40,A,4217.6394991,N,07115.8813233,W,0.66,52.41,090216,14.7,W,D,S*49
$GPRMC,025323.50,A,4217.6395396,N,07115.8813310,W,0.93,32.28,090216,14.7,W,D,S*47
$GPRMC,025323.60,A,4217.6395867,N,07115.8813443,W,1.00,15.37,090216,14.7,W,D,S*40
$GPRMC,025323.70,A,4217.6396365,N,07115.8813578,W,0.87,10.65,090216,14.7,W,D,S*4E
$GPRMC,025323.80,A,4217.6396771,N,07115.8813706,W,0.63,31.62,090216,14.7,W,D,S*45
$GPRMC,025323.90,A,4217.6397161,N,07115.8813788,W,0.85,44.61,090216,14.7,W,D,S*4D
$GPRMC,025324.00,A,4217.6397514,N,07115.8813833,W,0.73,46.89,090216,14.7,W,D,S*47
$GPRMC,025324.10,A,4217.6397838,N,07115.8813859,W,0.65,45.32,090216,14.7,W,D,S*4D
$GPRMC,025324.20,A,4217.6398113,N,07115.8813877,W,0.83,44.01,090216,14.7,W,D,S*44
$GPRMC,025324.30,A,4217.6398400,N,07115.8813856,W,0.65,46.00,090216,14.7,W,D,S*4A
$GPRMC,025324.40,A,4217.6398657,N,07115.8813905,W,0.72,6.74,090216,14.7,W,D,S*7B
$GPRMC,025324.50,A,4217.6398951,N,07115.8813981,W,1.01,19.98,090216,14.7,W,D,S*46
$GPRMC,025324.60,A,4217.6399273,N,07115.8813984,W,0.92,33.03,090216,14.7,W,D,S*4B
$GPRMC,025324.70,A,4217.6399552,N,07115.8813967,W,0.96,43.85,090216,14.7,W,D,S*4E
$GPRMC,025324.80,A,4217.6399860,N,07115.8813952,W,0.99,33.84,090216,14.7,W,D,S*42
$GPRMC,025324.90,A,4217.6400181,N,07115.8814010,W,0.97,27.64,090216,14.7,W,D,S*4F
$GPRMC,025325.00,A,4217.6400527,N,07115.8814066,W,1.00,19.14,090216,14.7,W,D,S*4B
$GPRMC,025325.10,A,4217.6400863,N,07115.8814099,W,0.87,33.48,090216,14.7,W,D,C*58
$GPRMC,025325.20,A,4217.6401251,N,07115.8814192,W,1.05,27.40,090216,14.7,W,D,C*5D
$GPRMC,025325.30,A,4217.6401649,N,07115.8814297,W,0.80,11.31,090216,14.7,W,D,C*58
$GPRMC,025325.40,A,4217.6402034,N,07115.8814434,W,0.95,30.53,090216,14.7,W,D,C*5C
$GPRMC,025325.50,A,4217.6402373,N,07115.8814495,W,0.88,43.72,090216,14.7,W,D,C*5D
$GPRMC,025325.60,A,4217.6402671,N,07115.8814519,W,0.85,32.39,090216,14.7,W,D,C*58
$GPRMC,025325.70,A,4217.6402996,N,07115.8814588,W,0.61,34.55,090216,14.7,W,D,C*51
$GPRMC,025325.80,A,4217.6403307,N,07115.8814672,W,0.90,20.66,090216,14.7,W,D,C*50
$GPRMC,025325.90,A,4217.6403630,N,07115.8814757,W,0.76,8.51,090216,14.7,W,D,C*60
$GPRMC,025326.00,A,4217.6403921,N,07115.8814878,W,0.74,4.48,090216,14.7,W,D,C*61
$GPRMC,025326.10,A,4217.6404221,N,07115.8814940,W,0.78,31.20,090216,14.7,W,D,C*52
$GPRMC,025326.20,A,4217.6404514,N,07115.8814899,W,1.01,15.53,090216,14.7,W,D,C*58
$GPRMC,025326.30,A,4217.6404802,N,07115.8814956,W,0.57,14.20,090216,14.7,W,D,C*56
$GPRMC,025326.40,A,4217.6405075,N,07115.8814945,W,0.83,38.64,090216,14.7,W,D,C*5D
$GPRMC,025326.50,A,4217.6405320,N,07115.8814930,W,0.64,13.50,090216,14.7,W,D,C*5A
$GPRMC,025326.60,A,4217.6405548,N,07115.8814916,W,0.42,29.55,090216,14.7,W,D,C*5D
$GPRMC,025326.70,A,4217.6405722,N,07115.8814957,W,0.49,24.85,090216,14.7,W,D,C*5C
$GPRMC,025326.80,A,4217.6405885,N,07115.8814918,W,0.36,46.55,090216,14.7,W,D,C*5B
$GPRMC,025326.90,A,4217.6405961,N,07115.8814857,W,0.43,63.24,090216,14.7,W,D,C*58
$GPRMC,025327.00,A,4217.6406011,N,07115.8814896,W,0.33,283.88,090216,14.7,W,D,C*6D
$GPRMC,025327.10,A,4217.6406069,N,07115.8814994,W,0.22,256.67,090216,14.7,W,D,C*69
$GPRMC,025327.20,A,4217.6406144,N,07115.8815102,W,0.33,332.87,090216,14.7,W,D,C*6F
$GPRMC,025327.30,A,4217.6406219,N,07115.8815240,W,0.25,278.78,090216,14.7,W,D,C*68
$GPRMC,025327.40,A,4217.6406258,N,07115.8815234,W,0.28,96.99,090216,14.7,W,D,C*59
$GPRMC,025327.50,A,4217.6406337,N,07115.8815286,W,0.25,308.30,090216,14.7,W,D,C*63
$GPRMC,025327.60,A,4217.6406355,N,07115.8815263,W,0.44,120.80,090216,14.7,W,D,C*6B
$GPRMC,025327.70,A,4217.6406352,N,07115.8815135,W,0.59,91.52,090216,14.7,W,D,C*55
$GPRMC,025327.80,A,4217.6406528,N,07115.8815079,W,0.83,344.43,090216,14.7,W,D,C*64
$GPRMC,025327.90,A,4217.6406631,N,07115.8815126,W,0.24,338.93,090216,14.7,W,D,C*6E
$GPRMC,025328.00,A,4217.6406696,N,07115.8815259,W,0.35,269.97,090216,14.7,W,D,C*6F
$GPRMC,025328.10,A,4217.6406754,N,07115.8815494,W,0.76,266.07,090216,14.7,W,D,C*67
$GPRMC,025328.20,A,4217.6406813,N,07115.8815681,W,0.35,349.93,090216,14.7,W,D,C*68
$GPRMC,025328.30,A,4217.6406863,N,07115.8815776,W,0.08,181.72,090216,14.7,W,D,C*60
$GPRMC,025328.40,A,4217.6406856,N,07115.8815837,W,0.23,200.75,090216,14.7,W,D,C*6F
$GPRMC,025328.50,A,4217.6406867,N,07115.8815878,W,0.27,80.87,090216,14.7,W,D,C*54
$GPRMC,025328.60,A,4217.6406928,N,07115.8815884,W,0.18,318.93,090216,14.7,W,D,C*65
$GPRMC,025328.70,A,4217.6406969,N,07115.8815911,W,0.28,238.65,090216,14.7,W,D,C*65
$GPRMC,025328.80,A,4217.6406930,N,07115.8816041,W,0.08,251.51,090216,14.7,W,D,C*63
$GPRMC,025328.90,A,4217.6406912,N,07115.8816153,W,0.08,0.78,090216,14.7,W,D,C*6D
$GPRMC,025329.00,A,4217.6406908,N,07115.8816223,W,0.23,232.63,090216,14.7,W,D,C*6A
$GPRMC,025329.10,A,4217.6406880,N,07115.8816268,W,0.40,197.72,090216,14.7,W,D,C*6C
$GPRMC,025329.20,A,4217.6406878,N,07115.8816337,W,0.21,81.34,090216,14.7,W,D,C*50
$GPRMC,025329.30,A,4217.6406892,N,07115.8816389,W,0.11,227.46,090216,14.7,W,D,C*68
$GPRMC,025329.40,A,4217.6406910,N,07115.8816510,W,0.26,261.52,090216,14.7,W,D,C*61
$GPRMC,025329.50,A,4217.6406921,N,07115.8816524,W,0.18,83.16,090216,14.7,W,D,C*56
$GPRMC,025329.60,A,4217.6406947,N,07115.8816576,W,0.07,131.73,090216,14.7,W,D,C*67
$GPRMC,025329.70,A,4217.6406945,N,07115.8816672,W,0.19,255.93,090216,14.7,W,D,C*63
$GPRMC,025329.80,A,4217.6406909,N,07115.8816768,W,0.14,206.45,090216,14.7,W,D,C*6E
$GPRMC,025329.90,A,4217.6406960,N,07115.8816816,W,0.34,4.83,090216,14.7,W,D,C*6E
$GPRMC,025330.00,A,4217.6406958,N,07115.8816848,W,0.39,122.09,090216,14.7,W,D,C*65
$GPRMC,025330.10,A,4217.6406907,N,07115.8816983,W,0.20,218.94,090216,14.7,W,D,C*6E
$GPRMC,025330.20,A,4217.6406861,N,07115.8817132,W,0.11,188.67,090216,14.7,W,D,C*6B
$GPRMC,025330.30,A,4217.6406874,N,07115.8817209,W,0.25,10.21,090216,14.7,W,D,C*50
$GPRMC,025330.40,A,4217.6406863,N,07115.8817422,W,0.23,258.26,090216,14.7,W,D,C*61
$GPRMC,025330.50,A,4217.6406824,N,07115.8817626,W,0.06,183.85,090216,14.7,W,D,C*6E
$GPRMC,025330.60,A,4217.6406775,N,07115.8817822,W,0.17,306.08,090216,14.7,W,D,C*66
$GPRMC,025330.70,A,4217.6406721,N,07115.8818105,W,0.22,133.90,090216,14.7,W,D,C*66
$GPRMC,025330.80,A,4217.6406644,N,07115.8818369,W,0.30,354.82,090216,14.7,W,D,C*60
$GPRMC,025330.90,A,4217.6406602,N,07115.8818639,W,0.20,155.01,090216,14.7,W,D,C*6A
$GPRMC,025331.00,A,4217.6406529,N,07115.8818922,W,0.08,296.61,090216,14.7,W,D,C*6D
$GPRMC,025331.10,A,4217.6406428,N,07115.8819218,W,0.24,185.43,090216,14.7,W,D,C*60
$GPRMC,025331.20,A,4217.6406314,N,07115.8819430,W,0.26,136.98,090216,14.7,W,D,C*6B
$GPRMC,025331.30,A,4217.6406216,N,07115.8819701,W,0.15,230.92,090216,14.7,W,D,C*67
$GPRMC,025331.40,A,4217.6406199,N,07115.8820095,W,0.35,330.93,090216,14.7,W,D,C*66
$GPRMC,025331.50,A,4217.6406192,N,07115.8820286,W,0.08,13.29,090216,14.7,W,D,C*51
$GPRMC,025331.60,A,4217.6406082,N,07115.8820546,W,0.08,169.98,090216,14.7,W,D,C*6F
$GPRMC,025331.70,A,4217.6405973,N,07115.8820753,W,0.29,340.62,090216,14.7,W,D,C*63
$GPRMC,025331.80,A,4217.6405988,N,07115.8821144,W,0.75,307.23,090216,14.7,W,D,C*66
$GPRMC,025331.90,A,4217.6406027,N,07115.8821548,W,0.18,295.98,090216,14.7,W,D,C*61
$GPRMC,025332.00,A,4217.6405961,N,07115.8821870,W,0.27,170.58,090216,14.7,W,D,C*6D
$GPRMC,025332.10,A,4217.6405965,N,07115.8822189,W,0.09,4.10,090216,14.7,W,D,C*66
$GPRMC,025332.20,A,4217.6406013,N,07115.8822541,W,0.11,24.52,090216,14.7,W,D,C*53
$GPRMC,025332.30,A,4217.6406109,N,07115.8822889,W,0.05,63.98,090216,14.7,W,D,C*51
$GPRMC,025332.40,A,4217.6406210,N,07115.8823248,W,0.10,322.57,090216,14.7,W,D,C*6A
$GPRMC,025332.50,A,4217.6406275,N,07115.8823611,W,0.14,125.82,090216,14.7,W,D,C*69
$GPRMC,025332.60,A,4217.6406348,N,07115.8823927,W,0.06,53.30,090216,14.7,W,D,C*55
$GPRMC,025332.70,A,4217.6406406,N,07115.8824264,W,0.11,146.20,090216,14.7,W,D,C*60
$GPRMC,025332.80,A,4217.6406468,N,07115.8824529,W,0.11,6.61,090216,14.7,W,D,C*69
$GPRMC,025332.90,A,4217.6406574,N,07115.8824885,W,0.21,325.01,090216,14.7,W,D,C*68
$GPRMC,025333.00,A,4217.6406664,N,07115.8825211,W,0.01,144.62,090216,14.7,W,D,S*76
$GPRMC,025333.10,A,4217.6406692,N,07115.8825503,W,0.16,237.42,090216,14.7,W,D,S*79
$GPRMC,025333.20,A,4217.6406687,N,07115.8825792,W,0.28,254.82,090216,14.7,W,D,S*70
$GPRMC,025333.30,A,4217.6406689,N,07115.8826071,W,0.23,203.31,090216,14.7,W,D,S*77
$GPRMC,025333.40,A,4217.6406640,N,07115.8826282,W,0.18,89.47,090216,14.7,W,D,S*42
$GPRMC,025333.50,A,4217.6406623,N,07115.8826429,W,0.16,3.79,090216,14.7,W,D,S*70
$GPRMC,025333.60,A,4217.6406608,N,07115.8826572,W,0.16,169.81,090216,14.7,W,D,S*7F
$GPRMC,025333.70,A,4217.6406529,N,07115.8826710,W,0.05,63.58,090216,14.7,W,D,S*45
$GPRMC,025333.80,A,4217.6406482,N,07115.8826869,W,0.05,47.07,090216,14.7,W,D,S*47
$GPRMC,025333.90,A,4217.6406483,N,07115.8827048,W,0.25,317.78,090216,14.7,W,D,S*71
$GPRMC,025334.00,A,4217.6406491,N,07115.8827208,W,0.17,269.47,090216,14.7,W,D,S*7F
$GPRMC,025334.10,A,4217.6406438,N,07115.8827295,W,0.18,91.66,090216,14.7,W,D,S*40
$GPRMC,025334.20,A,4217.6406394,N,07115.8827423,W,0.06,158.42,090216,14.7,W,D,S*74
$GPRMC,025334.30,A,4217.6406311,N,07115.8827608,W,0.23,221.35,090216,14.7,W,D,S*79
$GPRMC,025334.40,A,4217.6406182,N,07115.8827708,W,0.27,172.27,090216,14.7,W,D,S*75
$GPRMC,025334.50,A,4217.6406204,N,07115.8827826,W,0.61,344.94,090216,14.7,W,D,S*77
$GPRMC,025334.60,A,4217.6406247,N,07115.8827985,W,0.21,289.72,090216,14.7,W,D,S*77
$GPRMC,025334.70,A,4217.6406128,N,07115.8828000,W,0.31,121.04,090216,14.7,W,D,S*76
$GPRMC,025334.80,A,4217.6405976,N,07115.8827983,W,0.05,59.79,090216,14.7,W,D,S*47
$GPRMC,025334.90,A,4217.6405795,N,07115.8827965,W,0.15,170.33,090216,14.7,W,D,S*78
$GPRMC,025335.00,A,4217.6405690,N,07115.8828004,W,0.31,321.18,090216,14.7,W,D,S*7C
$GPRMC,025335.10,A,4217.6405604,N,07115.8828066,W,0.12,315.32,090216,14.7,W,D,S*7A
$GPRMC,025335.20,A,4217.6405524,N,07115.8828139,W,0.25,329.17,090216,14.7,W,D,S*7F
$GPRMC,025335.30,A,4217.6405453,N,07115.8828195,W,0.48,329.90,090216,14.7,W,D,S*7D
$GPRMC,025335.40,A,4217.6405367,N,07115.8828203,W,0.13,24.17,090216,14.7,W,D,S*49
$GPRMC,025335.50,A,4217.6405247,N,07115.8828163,W,0.28,334.09,090216,14.7,W,D,S*7B
$GPRMC,025335.60,A,4217.6405180,N,07115.8828173,W,0.20,329.74,090216,14.7,W,D,S*7F
$GPRMC,025335.70,A,4217.6405030,N,07115.8828150,W,0.13,324.47,090216,14.7,W,D,S*78
$GPRMC,025335.80,A,4217.6404895,N,07115.8828098,W,0.13,53.99,090216,14.7,W,D,S*44
$GPRMC,025335.90,A,4217.6404740,N,07115.8828058,W,0.10,201.79,090216,14.7,W,D,S*76
$GPRMC,025336.00,A,4217.6404552,N,07115.8828022,W,0.11,117.63,090216,14.7,W,D,S*7E
$GPRMC,025336.10,A,4217.6404411,N,07115.8827997,W,0.13,21.07,090216,14.7,W,D,S*45
$GPRMC,025336.20,A,4217.6404255,N,07115.8827930,W,0.09,135.35,090216,14.7,W,D,S*73
$GPRMC,025336.30,A,4217.6404120,N,07115.8827906,W,0.14,283.09,090216,14.7,W,D,S*7B
$GPRMC,025336.40,A,4217.6403989,N,07115.8827873,W,0.19,125.81,090216,14.7,W,D,S*71

